[
  {
    "name": "Sarah Johnson",
    "city": "New York",
    "state": "NY",
    "lat": 40.7128,
    "lng": -74.0060,
    "year": 2023,
    "prize": "$100,000",
    "category": "Innovation"
  },
  {
    "name": "Michael Chen",
    "city": "San Francisco",
    "state": "CA",
    "lat": 37.7749,
    "lng": -122.4194,
    "year": 2023,
    "prize": "$75,000",
    "category": "Excellence"
  },
  {
    "name": "Emily Rodriguez",
    "city": "Miami",
    "state": "FL",
    "lat": 25.7617,
    "lng": -80.1918,
    "year": 2023,
    "prize": "$50,000",
    "category": "Leadership"
  },
  {
    "name": "David Thompson",
    "city": "Chicago",
    "state": "IL",
    "lat": 41.8781,
    "lng": -87.6298,
    "year": 2023,
    "prize": "$60,000",
    "category": "Community Impact"
  },
  {
    "name": "Lisa Wang",
    "city": "Seattle",
    "state": "WA",
    "lat": 47.6062,
    "lng": -122.3321,
    "year": 2023,
    "prize": "$80,000",
    "category": "Innovation"
  },
  {
    "name": "James Wilson",
    "city": "Austin",
    "state": "TX",
    "lat": 30.2672,
    "lng": -97.7431,
    "year": 2023,
    "prize": "$45,000",
    "category": "Excellence"
  },
  {
    "name": "Maria Garcia",
    "city": "Denver",
    "state": "CO",
    "lat": 39.7392,
    "lng": -104.9903,
    "year": 2023,
    "prize": "$55,000",
    "category": "Leadership"
  },
  {
    "name": "Robert Kim",
    "city": "Boston",
    "state": "MA",
    "lat": 42.3601,
    "lng": -71.0589,
    "year": 2023,
    "prize": "$70,000",
    "category": "Innovation"
  },
  {
    "name": "Jennifer Lee",
    "city": "Portland",
    "state": "OR",
    "lat": 45.5152,
    "lng": -122.6784,
    "year": 2023,
    "prize": "$40,000",
    "category": "Community Impact"
  },
  {
    "name": "Thomas Brown",
    "city": "Nashville",
    "state": "TN",
    "lat": 36.1627,
    "lng": -86.7816,
    "year": 2023,
    "prize": "$65,000",
    "category": "Excellence"
  },
  {
    "name": "Amanda Davis",
    "city": "Phoenix",
    "state": "AZ",
    "lat": 33.4484,
    "lng": -112.0740,
    "year": 2023,
    "prize": "$35,000",
    "category": "Leadership"
  },
  {
    "name": "Christopher Martinez",
    "city": "Las Vegas",
    "state": "NV",
    "lat": 36.1699,
    "lng": -115.1398,
    "year": 2023,
    "prize": "$90,000",
    "category": "Innovation"
  },
  {
    "name": "Rachel Green",
    "city": "Atlanta",
    "state": "GA",
    "lat": 33.7490,
    "lng": -84.3880,
    "year": 2023,
    "prize": "$55,000",
    "category": "Community Impact"
  },
  {
    "name": "Kevin Taylor",
    "city": "Dallas",
    "state": "TX",
    "lat": 32.7767,
    "lng": -96.7970,
    "year": 2023,
    "prize": "$70,000",
    "category": "Excellence"
  },
  {
    "name": "Nicole Anderson",
    "city": "Philadelphia",
    "state": "PA",
    "lat": 39.9526,
    "lng": -75.1652,
    "year": 2023,
    "prize": "$45,000",
    "category": "Leadership"
  },
  {
    "name": "Daniel White",
    "city": "San Diego",
    "state": "CA",
    "lat": 32.7157,
    "lng": -117.1611,
    "year": 2023,
    "prize": "$60,000",
    "category": "Innovation"
  },
  {
    "name": "Stephanie Clark",
    "city": "Detroit",
    "state": "MI",
    "lat": 42.3314,
    "lng": -83.0458,
    "year": 2023,
    "prize": "$50,000",
    "category": "Community Impact"
  },
  {
    "name": "Andrew Lewis",
    "city": "Minneapolis",
    "state": "MN",
    "lat": 44.9778,
    "lng": -93.2650,
    "year": 2023,
    "prize": "$75,000",
    "category": "Excellence"
  },
  {
    "name": "Jessica Hall",
    "city": "Cleveland",
    "state": "OH",
    "lat": 41.4993,
    "lng": -81.6944,
    "year": 2023,
    "prize": "$40,000",
    "category": "Leadership"
  },
  {
    "name": "Ryan Young",
    "city": "Kansas City",
    "state": "MO",
    "lat": 39.0997,
    "lng": -94.5786,
    "year": 2023,
    "prize": "$65,000",
    "category": "Innovation"
  },
  {
    "name": "Lauren King",
    "city": "Orlando",
    "state": "FL",
    "lat": 28.5383,
    "lng": -81.3792,
    "year": 2023,
    "prize": "$55,000",
    "category": "Community Impact"
  },
  {
    "name": "Brandon Scott",
    "city": "Salt Lake City",
    "state": "UT",
    "lat": 40.7608,
    "lng": -111.8910,
    "year": 2023,
    "prize": "$80,000",
    "category": "Excellence"
  },
  {
    "name": "Megan Wright",
    "city": "Tampa",
    "state": "FL",
    "lat": 27.9506,
    "lng": -82.4572,
    "year": 2023,
    "prize": "$45,000",
    "category": "Leadership"
  },
  {
    "name": "Jonathan Lopez",
    "city": "Charlotte",
    "state": "NC",
    "lat": 35.2271,
    "lng": -80.8431,
    "year": 2023,
    "prize": "$70,000",
    "category": "Innovation"
  },
  {
    "name": "Ashley Hill",
    "city": "Indianapolis",
    "state": "IN",
    "lat": 39.7684,
    "lng": -86.1581,
    "year": 2023,
    "prize": "$50,000",
    "category": "Community Impact"
  }
] 